City,lat,long
Bhamo,24.2688,97.233
Chipwi,25.8,98.3667
Hpakant,25.6333,96.4667
Injangyang,25.66,97.1067
Kamaing,25.02,97.05
Mansi,24.837,97.179
Momauk,25.2233,96.9278
Puta_O,27.3333,97.4
Shwegu,24.5595,96.4646
Shumprabum,24.8,96.9
Tanai,25.5,96.95
Tsawlaw,25.4233,97.3483
Waingmaw,25.2833,97.4167
Mogaung,25.3333,96.9333
Mohnyin,24.7821,96.665
Myintkyina,25.3833,97.4